Facility_ID,Facility_Name,Type,Daily_Demand,Latitude,Longitude
MED_CENTER,Campus Medical Center,Hospital,80,9.5115,76.5535
ENG_BUILDING,Engineering Building,Academic,30,9.511,76.554
SCIENCE_HALL,Science Hall,Academic,35,9.5105,76.5545
DORM_A,North Dormitory,Residential,55,9.5125,76.553
DORM_B,South Dormitory,Residential,45,9.51,76.5535
LIBRARY,Main Library,Academic,25,9.5112,76.5538
