Facility_ID,Facility_Name,Type,Daily_Demand,Latitude,Longitude
MED_CENTER,Campus Medical Center,Hospital,80,9.5485,76.5412
ENG_BUILDING,Engineering Building,Academic,30,9.549,76.5415
SCIENCE_HALL,Science Hall,Academic,35,9.5475,76.542
DORM_A,North Dormitory,Residential,55,9.55,76.5405
DORM_B,South Dormitory,Residential,45,9.546,76.543
LIBRARY,Main Library,Academic,25,9.548,76.541
